{
    "Items": [
        {
            "StoreLocation": {
                "Id": 502954,
                "DateCreated": "2019-12-13T10:03:25",
                "StoreNumber": null,
                "StoreName": "Talk More Wireless",
                "District": "Birmingham",
                "Dealer": "Talk More Wireless",
                "Address": "230 1st St SW",
                "City": "Alabaster",
                "State": "AL",
                "StateAbbr": "AL",
                "StateFull": "Alabama",
                "Zip": "35007-8527",
                "Latitude": 33.24428,
                "Longitude": -86.81638,
                "Email": "jjones1@retaildoneright.com",
                "Website": "",
                "PhoneNumber": null,
                "StoreLocationType": 2,
                "StoreLocationTypeStr": "MetroPCS"
            },
            "distance": 0.0
        },
        {
            "StoreLocation": {
                "Id": 502962,
                "DateCreated": "2019-12-13T10:03:25",
                "StoreNumber": null,
                "StoreName": "Talk More Wireless",
                "District": "Birmingham",
                "Dealer": "Talk More Wireless",
                "Address": "7337 US Highway 431",
                "City": "Albertville",
                "State": "AL",
                "StateAbbr": "AL",
                "StateFull": "Alabama",
                "Zip": "35950-1190",
                "Latitude": 34.26759,
                "Longitude": -86.20887,
                "Email": "jjones1@retaildoneright.com",
                "Website": "",
                "PhoneNumber": null,
                "StoreLocationType": 2,
                "StoreLocationTypeStr": "MetroPCS"
            },
            "distance": 0.0
        },
        {
            "StoreLocation": {
                "Id": 502784,
                "DateCreated": "2019-12-13T10:03:19",
                "StoreNumber": null,
                "StoreName": "Wireless Time",
                "District": "Birmingham",
                "Dealer": "Wireless Time",
                "Address": "2030C Quintard Ave",
                "City": "Anniston",
                "State": "AL",
                "StateAbbr": "AL",
                "StateFull": "Alabama",
                "Zip": "36201-3220",
                "Latitude": 33.65983,
                "Longitude": -85.83163,
                "Email": "",
                "Website": "http://www.wirelesstimecareers.com/",
                "PhoneNumber": null,
                "StoreLocationType": 2,
                "StoreLocationTypeStr": "MetroPCS"
            },
            "distance": 0.0
        },
        {
            "StoreLocation": {
                "Id": 502957,
                "DateCreated": "2019-12-13T10:03:25",
                "StoreNumber": null,
                "StoreName": "Talk More Wireless",
                "District": "Birmingham",
                "Dealer": "Talk More Wireless",
                "Address": "1010 S Quintard Ave",
                "City": "Anniston",
                "State": "AL",
                "StateAbbr": "AL",
                "StateFull": "Alabama",
                "Zip": "36201-8241",
                "Latitude": 33.65983,
                "Longitude": -85.83163,
                "Email": "jjones1@retaildoneright.com",
                "Website": "",
                "PhoneNumber": null,
                "StoreLocationType": 2,
                "StoreLocationTypeStr": "MetroPCS"
            },
            "distance": 0.0
        },
        {
            "StoreLocation": {
                "Id": 504725,
                "DateCreated": "2019-12-13T10:04:18",
                "StoreNumber": null,
                "StoreName": "T-Link, Inc.",
                "District": "Birmingham",
                "Dealer": "T-Link, Inc.",
                "Address": "9541 Parkway E",
                "City": "Birmingham",
                "State": "AL",
                "StateAbbr": "AL",
                "StateFull": "Alabama",
                "Zip": "35215-8319",
                "Latitude": 33.52066,
                "Longitude": -86.80249,
                "Email": "hr@tlinkwireless.com",
                "Website": "",
                "PhoneNumber": null,
                "StoreLocationType": 2,
                "StoreLocationTypeStr": "MetroPCS"
            },
            "distance": 0.0
        },
        {
            "StoreLocation": {
                "Id": 504726,
                "DateCreated": "2019-12-13T10:04:18",
                "StoreNumber": null,
                "StoreName": "T-Link, Inc.",
                "District": "Birmingham",
                "Dealer": "T-Link, Inc.",
                "Address": "5400 1st Ave N",
                "City": "Birmingham",
                "State": "AL",
                "StateAbbr": "AL",
                "StateFull": "Alabama",
                "Zip": "35212-2404",
                "Latitude": 33.52066,
                "Longitude": -86.80249,
                "Email": "hr@tlinkwireless.com",
                "Website": "",
                "PhoneNumber": null,
                "StoreLocationType": 2,
                "StoreLocationTypeStr": "MetroPCS"
            },
            "distance": 0.0
        },
        {
            "StoreLocation": {
                "Id": 504727,
                "DateCreated": "2019-12-13T10:04:18",
                "StoreNumber": null,
                "StoreName": "T-Link, Inc.",
                "District": "Birmingham",
                "Dealer": "T-Link, Inc.",
                "Address": "74 6th Ave S Ste 101",
                "City": "Birmingham",
                "State": "AL",
                "StateAbbr": "AL",
                "StateFull": "Alabama",
                "Zip": "35205-4225",
                "Latitude": 33.52066,
                "Longitude": -86.80249,
                "Email": "hr@tlinkwireless.com",
                "Website": "",
                "PhoneNumber": null,
                "StoreLocationType": 2,
                "StoreLocationTypeStr": "MetroPCS"
            },
            "distance": 0.0
        },
        {
            "StoreLocation": {
                "Id": 502796,
                "DateCreated": "2019-12-13T10:03:20",
                "StoreNumber": null,
                "StoreName": "Wireless Time",
                "District": "Birmingham",
                "Dealer": "Wireless Time",
                "Address": "1930 Edwards Lake Rd",
                "City": "Birmingham",
                "State": "AL",
                "StateAbbr": "AL",
                "StateFull": "Alabama",
                "Zip": "35235-3718",
                "Latitude": 33.52066,
                "Longitude": -86.80249,
                "Email": "",
                "Website": "http://www.wirelesstimecareers.com/",
                "PhoneNumber": null,
                "StoreLocationType": 2,
                "StoreLocationTypeStr": "MetroPCS"
            },
            "distance": 0.0
        },
        {
            "StoreLocation": {
                "Id": 502949,
                "DateCreated": "2019-12-13T10:03:25",
                "StoreNumber": null,
                "StoreName": "Talk More Wireless",
                "District": "Birmingham",
                "Dealer": "Talk More Wireless",
                "Address": "2450 Old Springville Rd",
                "City": "Birmingham",
                "State": "AL",
                "StateAbbr": "AL",
                "StateFull": "Alabama",
                "Zip": "35215-4054",
                "Latitude": 33.52066,
                "Longitude": -86.80249,
                "Email": "jjones1@retaildoneright.com",
                "Website": "",
                "PhoneNumber": null,
                "StoreLocationType": 2,
                "StoreLocationTypeStr": "MetroPCS"
            },
            "distance": 0.0
        },
        {
            "StoreLocation": {
                "Id": 502953,
                "DateCreated": "2019-12-13T10:03:25",
                "StoreNumber": null,
                "StoreName": "Talk More Wireless",
                "District": "Birmingham",
                "Dealer": "Talk More Wireless",
                "Address": "1163 Bankhead Hwy W",
                "City": "Birmingham",
                "State": "AL",
                "StateAbbr": "AL",
                "StateFull": "Alabama",
                "Zip": "35204-1328",
                "Latitude": 33.52066,
                "Longitude": -86.80249,
                "Email": "jjones1@retaildoneright.com",
                "Website": "",
                "PhoneNumber": null,
                "StoreLocationType": 2,
                "StoreLocationTypeStr": "MetroPCS"
            },
            "distance": 0.0
        },
        {
            "StoreLocation": {
                "Id": 502961,
                "DateCreated": "2019-12-13T10:03:25",
                "StoreNumber": null,
                "StoreName": "Talk More Wireless",
                "District": "Birmingham",
                "Dealer": "Talk More Wireless",
                "Address": "1117 US Highway 431",
                "City": "Boaz",
                "State": "AL",
                "StateAbbr": "AL",
                "StateFull": "Alabama",
                "Zip": "35957-1729",
                "Latitude": 34.20065,
                "Longitude": -86.16637,
                "Email": "jjones1@retaildoneright.com",
                "Website": "",
                "PhoneNumber": null,
                "StoreLocationType": 2,
                "StoreLocationTypeStr": "MetroPCS"
            },
            "distance": 0.0
        },
        {
            "StoreLocation": {
                "Id": 502778,
                "DateCreated": "2019-12-13T10:03:19",
                "StoreNumber": null,
                "StoreName": "Wireless Time",
                "District": "Birmingham",
                "Dealer": "Wireless Time",
                "Address": "1648 2nd Ave SW",
                "City": "Cullman",
                "State": "AL",
                "StateAbbr": "AL",
                "StateFull": "Alabama",
                "Zip": "35055-5313",
                "Latitude": 34.17482,
                "Longitude": -86.84361,
                "Email": "",
                "Website": "http://www.wirelesstimecareers.com/",
                "PhoneNumber": null,
                "StoreLocationType": 2,
                "StoreLocationTypeStr": "MetroPCS"
            },
            "distance": 0.0
        },
        {
            "StoreLocation": {
                "Id": 429702,
                "DateCreated": "2019-02-20T12:18:21",
                "StoreNumber": null,
                "StoreName": "Hwy 90 & Old Spanish Trail",
                "District": "TPR Alabama/Memphis",
                "Dealer": "Spark Wireless, LLC",
                "Address": "6850 US 90  Suite A-1",
                "City": "Daphne",
                "State": "AL",
                "StateAbbr": "AL",
                "StateFull": "Alabama",
                "Zip": "36526",
                "Latitude": 30.6197,
                "Longitude": -87.8895,
                "Email": "retailstore5576@t-mobile.com",
                "Website": "http://www.mysparkwireless.com/careers/",
                "PhoneNumber": "251-626-3227",
                "StoreLocationType": 1,
                "StoreLocationTypeStr": "TPR"
            },
            "distance": 0.0
        },
        {
            "StoreLocation": {
                "Id": 430202,
                "DateCreated": "2019-02-20T12:18:22",
                "StoreNumber": null,
                "StoreName": "Hwy 31 & Napier Field Road",
                "District": "Unknown",
                "Dealer": "Spark Wireless, LLC",
                "Address": "5031 Montgomery Hwy",
                "City": "Dothan",
                "State": "AL",
                "StateAbbr": "AL",
                "StateFull": "Alabama",
                "Zip": "36303",
                "Latitude": 31.2668,
                "Longitude": -85.3971,
                "Email": "retailstore196D@t-mobile.com",
                "Website": "http://www.mysparkwireless.com/careers/",
                "PhoneNumber": "",
                "StoreLocationType": 1,
                "StoreLocationTypeStr": "TPR"
            },
            "distance": 0.0
        },
        {
            "StoreLocation": {
                "Id": 502779,
                "DateCreated": "2019-12-13T10:03:19",
                "StoreNumber": null,
                "StoreName": "Wireless Time",
                "District": "Birmingham",
                "Dealer": "Wireless Time",
                "Address": "4177 Montgomery Hwy Ste 5",
                "City": "Dothan",
                "State": "AL",
                "StateAbbr": "AL",
                "StateFull": "Alabama",
                "Zip": "36303-1588",
                "Latitude": 31.22323,
                "Longitude": -85.39049,
                "Email": "",
                "Website": "http://www.wirelesstimecareers.com/",
                "PhoneNumber": null,
                "StoreLocationType": 2,
                "StoreLocationTypeStr": "MetroPCS"
            },
            "distance": 0.0
        },
        {
            "StoreLocation": {
                "Id": 502780,
                "DateCreated": "2019-12-13T10:03:19",
                "StoreNumber": null,
                "StoreName": "Wireless Time",
                "District": "Birmingham",
                "Dealer": "Wireless Time",
                "Address": "307 Columbia Hwy",
                "City": "Dothan",
                "State": "AL",
                "StateAbbr": "AL",
                "StateFull": "Alabama",
                "Zip": "36301-1727",
                "Latitude": 31.22323,
                "Longitude": -85.39049,
                "Email": "",
                "Website": "http://www.wirelesstimecareers.com/",
                "PhoneNumber": null,
                "StoreLocationType": 2,
                "StoreLocationTypeStr": "MetroPCS"
            },
            "distance": 0.0
        },
        {
            "StoreLocation": {
                "Id": 502782,
                "DateCreated": "2019-12-13T10:03:19",
                "StoreNumber": null,
                "StoreName": "Wireless Time",
                "District": "Birmingham",
                "Dealer": "Wireless Time",
                "Address": "1561 Montgomery Hwy",
                "City": "Dothan",
                "State": "AL",
                "StateAbbr": "AL",
                "StateFull": "Alabama",
                "Zip": "36303-3307",
                "Latitude": 31.22323,
                "Longitude": -85.39049,
                "Email": "",
                "Website": "http://www.wirelesstimecareers.com/",
                "PhoneNumber": null,
                "StoreLocationType": 2,
                "StoreLocationTypeStr": "MetroPCS"
            },
            "distance": 0.0
        },
        {
            "StoreLocation": {
                "Id": 502783,
                "DateCreated": "2019-12-13T10:03:19",
                "StoreNumber": null,
                "StoreName": "Wireless Time",
                "District": "Birmingham",
                "Dealer": "Wireless Time",
                "Address": "1880 S Oates St Ste 3",
                "City": "Dothan",
                "State": "AL",
                "StateAbbr": "AL",
                "StateFull": "Alabama",
                "Zip": "36301-4434",
                "Latitude": 31.22323,
                "Longitude": -85.39049,
                "Email": "",
                "Website": "http://www.wirelesstimecareers.com/",
                "PhoneNumber": null,
                "StoreLocationType": 2,
                "StoreLocationTypeStr": "MetroPCS"
            },
            "distance": 0.0
        },
        {
            "StoreLocation": {
                "Id": 502797,
                "DateCreated": "2019-12-13T10:03:20",
                "StoreNumber": null,
                "StoreName": "Wireless Time",
                "District": "Birmingham",
                "Dealer": "Wireless Time",
                "Address": "621 Boll Weevil Cir",
                "City": "Enterprise",
                "State": "AL",
                "StateAbbr": "AL",
                "StateFull": "Alabama",
                "Zip": "36330-2702",
                "Latitude": 31.31517,
                "Longitude": -85.85522,
                "Email": "",
                "Website": "http://www.wirelesstimecareers.com/",
                "PhoneNumber": null,
                "StoreLocationType": 2,
                "StoreLocationTypeStr": "MetroPCS"
            },
            "distance": 0.0
        },
        {
            "StoreLocation": {
                "Id": 502955,
                "DateCreated": "2019-12-13T10:03:25",
                "StoreNumber": null,
                "StoreName": "Talk More Wireless",
                "District": "Birmingham",
                "Dealer": "Talk More Wireless",
                "Address": "3868 S McKenzie St",
                "City": "Foley",
                "State": "AL",
                "StateAbbr": "AL",
                "StateFull": "Alabama",
                "Zip": "36535-3716",
                "Latitude": 30.40659,
                "Longitude": -87.6836,
                "Email": "jjones1@retaildoneright.com",
                "Website": "",
                "PhoneNumber": null,
                "StoreLocationType": 2,
                "StoreLocationTypeStr": "MetroPCS"
            },
            "distance": 0.0
        }
    ],
    "TotalItems": 7717,
    "PageNumber": 1,
    "LocationStr": "",
    "StateName": "",
    "Location": null
}